Time,Aileron Command (norm),Elevator Command (norm),Rudder Command (norm),Flap Command (norm),Left Aileron Position (deg),Right Aileron Position (deg),Elevator Position (deg),Rudder Position (deg),Flap Position (deg),P (deg/s),Q (deg/s),R (deg/s),P dot (deg/s^2),Q dot (deg/s^2),R dot (deg/s^2),P_{inertial} (deg/s),Q_{inertial} (deg/s),R_{inertial} (deg/s),q bar (psf),Reynolds Number,V_{Total} (ft/s),V_{Inertial} (ft/s),UBody,VBody,WBody,UdotBody,VdotBody,WdotBody,UdotBody_i,VdotBody_i,WdotBody_i,BodyAccel_X,BodyAccel_Y,BodyAccel_Z,Aero V_{X Body} (ft/s),Aero V_{Y Body} (ft/s),Aero V_{Z Body} (ft/s),V_{X_{inertial}} (ft/s),V_{Y_{inertial}} (ft/s),V_{Z_{inertial}} (ft/s),V_{X_{ecef}} (ft/s),V_{Y_{ecef}} (ft/s),V_{Z_{ecef}} (ft/s),V_{North} (ft/s),V_{East} (ft/s),V_{Down} (ft/s),F_{Drag} (lbs),F_{Side} (lbs),F_{Lift} (lbs),L/D,F_{Aero x} (lbs),F_{Aero y} (lbs),F_{Aero z} (lbs),F_{Prop x} (lbs),F_{Prop y} (lbs),F_{Prop z} (lbs),F_{Gear x} (lbs),F_{Gear y} (lbs),F_{Gear z} (lbs),F_{Ext x} (lbs),F_{Ext y} (lbs),F_{Ext z} (lbs),F_{Buoyant x} (lbs),F_{Buoyant y} (lbs),F_{Buoyant z} (lbs),F_{Total x} (lbs),F_{Total y} (lbs),F_{Total z} (lbs),Rho (slugs/ft^3),Absolute Viscosity,Kinematic Viscosity,Temperature (R),P_{SL} (psf),P_{Ambient} (psf),Turbulence Magnitude (ft/sec),Turbulence X Direction (deg),Wind V_{North} (ft/s),Wind V_{East} (ft/s),Wind V_{Down} (ft/s),Roll Turbulence (deg/sec),Pitch Turbulence (deg/sec),Yaw Turbulence (deg/sec),I_{xx},I_{xy},I_{xz},I_{yx},I_{yy},I_{yz},I_{zx},I_{zy},I_{zz},Mass,Weight,X_{cg},Y_{cg},Z_{cg},Altitude ASL (ft),Altitude AGL (ft),Phi (deg),Theta (deg),Psi (deg),Q(1)_{LOCAL},Q(2)_{LOCAL},Q(3)_{LOCAL},Q(4)_{LOCAL},Q(1)_{ECEF},Q(2)_{ECEF},Q(3)_{ECEF},Q(4)_{ECEF},Q(1)_{ECI},Q(2)_{ECI},Q(3)_{ECI},Q(4)_{ECI},Alpha (deg),Beta (deg),Latitude (deg),Latitude Geodetic (deg),Longitude (deg),X_{ECI} (ft),Y_{ECI} (ft),Z_{ECI} (ft),X_{ECEF} (ft),Y_{ECEF} (ft),Z_{ECEF} (ft),Earth Position Angle (deg),Distance AGL (ft),Terrain Elevation (ft),aero/force/DRAG,aero/force/SIDE,aero/force/LIFT,aero/force/ROLL,aero/force/PITCH,aero/force/YAW,calculations/pitch-weights-delta/mass-center-m,fcs/wing-sweep-dmd,propulsion/engine[0]/EGT-R,propulsion/engine[1]/EGT-R,aero/function/KdGE,aero/function/kCLge,aero/coefficients/Cmach,aero/coefficients/CdTNK,aero/coefficients/CdMach,aero/coefficients/ClSweepFactor,aero/coefficients/ClBAS,aero/coefficients/ClDSLM,aero/coefficients/ClDFM,aero/coefficients/ClDSp,aero/coefficients/ClDS1,aero/coefficients/ClUC,aero/coefficients/ClDS2,aero/coefficients/Cl,aero/coefficients/CdUC,aero/coefficients/CdDSp,aero/coefficients/CdDBRK,aero/coefficients/CdBAS,aero/coefficients/CdDSLM,aero/coefficients/CdDFM,aero/coefficients/CdDS1,aero/coefficients/CdDS2,aero/coefficients/Cd,aero/coefficients/CyBAS,aero/coefficients/CyP,aero/coefficients/CyR,aero/coefficients/CyDA,aero/coefficients/CyDR,aero/coefficients/Cy,aero/coefficients/CLBAS,aero/coefficients/CLP,aero/coefficients/CLR,aero/coefficients/CLDA,aero/coefficients/CLDR,aero/coefficients/CL,aero/coefficients/CMBAS,aero/coefficients/DCMAIM,aero/coefficients/DCMB0,aero/coefficients/CMQ,aero/coefficients/CMDS1,aero/coefficients/CMDS2,aero/coefficients/DCMDS1,aero/coefficients/DCMDS2,aero/coefficients/CMBRK,aero/coefficients/CMUC,aero/coefficients/CMDSp,aero/coefficients/CMDFM,aero/coefficients/CM,aero/coefficients/CNBAS,aero/coefficients/DCNDS,aero/coefficients/CNP,aero/coefficients/CNR,aero/coefficients/CNDA,aero/coefficients/CNDR,aero/coefficients/CN,systems/hook/tailhook-control,systems/hook/tailhook-cmd-disagreement,systems/hook/ready,systems/hook/hook-decel-multiplier,systems/hook/hook-decel-force,systems/hook/force,systems/hook/animation-norm,Pitch Trim Sum,Elevator Control,Sweep Position,Sweep Control,elevator position,Ground Spoilers Control,Left elevator normalization,Right elevator normalization,Stabilizer Control,elevator normalization,fcs/stabilizer-1p-factor,fcs/stabilizer-2p-factor,fcs/flap-windfx-volume,fcs/gear-windfx-volume,fcs/stabilizer-1p,fcs/stabilizer-2p,Roll Trim Sum,Left Aileron Control,Right Aileron Control,left aileron normalization,right aileron normalization,aero/cn-sin-82beta,fcs/yaw-damper-active,fcs/pitch-damper-active,fcs/roll-damper-active,Pilot G,Yaw Damper Rate,Pitch Damper Rate,Roll Damper Rate,Rudder Command Sum,Rudder Sum,Rudder Control,rudder normalization,Flaps Control,flap normalization,Slats Control,Slat normalization,Gear Control,Speedbrake Control,fcs/hook-control,cg-x-offset-chord-in,cg-x-chord-percent,aero-cos-alpha,cbarq-2vo,aero-sin-alpha,CLxzcg,CNycg,NOSE_LG WOW,NOSE_LG stroke (ft),NOSE_LG stroke velocity (ft/sec),NOSE_LG compress force (lbs),NOSE_LG wheel side force (lbs),NOSE_LG wheel roll force (lbs),NOSE_LG body X force (lbs),NOSE_LG body Y force (lbs),NOSE_LG wheel velocity vec X (ft/sec),NOSE_LG wheel velocity vec Y (ft/sec),NOSE_LG wheel rolling velocity (ft/sec),NOSE_LG wheel side velocity (ft/sec),NOSE_LG wheel slip (deg),LEFT_MLG WOW,LEFT_MLG stroke (ft),LEFT_MLG stroke velocity (ft/sec),LEFT_MLG compress force (lbs),LEFT_MLG wheel side force (lbs),LEFT_MLG wheel roll force (lbs),LEFT_MLG body X force (lbs),LEFT_MLG body Y force (lbs),LEFT_MLG wheel velocity vec X (ft/sec),LEFT_MLG wheel velocity vec Y (ft/sec),LEFT_MLG wheel rolling velocity (ft/sec),LEFT_MLG wheel side velocity (ft/sec),LEFT_MLG wheel slip (deg),RIGHT_MLG WOW,RIGHT_MLG stroke (ft),RIGHT_MLG stroke velocity (ft/sec),RIGHT_MLG compress force (lbs),RIGHT_MLG wheel side force (lbs),RIGHT_MLG wheel roll force (lbs),RIGHT_MLG body X force (lbs),RIGHT_MLG body Y force (lbs),RIGHT_MLG wheel velocity vec X (ft/sec),RIGHT_MLG wheel velocity vec Y (ft/sec),RIGHT_MLG wheel rolling velocity (ft/sec),RIGHT_MLG wheel side velocity (ft/sec),RIGHT_MLG wheel slip (deg),LEFT_WING_TIP WOW,LEFT_WING_TIP stroke (ft),LEFT_WING_TIP stroke velocity (ft/sec),LEFT_WING_TIP compress force (lbs),RIGHT_WING_TIP WOW,RIGHT_WING_TIP stroke (ft),RIGHT_WING_TIP stroke velocity (ft/sec),RIGHT_WING_TIP compress force (lbs),FRONT_BODY_LEFT WOW,FRONT_BODY_LEFT stroke (ft),FRONT_BODY_LEFT stroke velocity (ft/sec),FRONT_BODY_LEFT compress force (lbs),REAR_BODY_LEFT WOW,REAR_BODY_LEFT stroke (ft),REAR_BODY_LEFT stroke velocity (ft/sec),REAR_BODY_LEFT compress force (lbs),REAR_BODY_RIGHT WOW,REAR_BODY_RIGHT stroke (ft),REAR_BODY_RIGHT stroke velocity (ft/sec),REAR_BODY_RIGHT compress force (lbs), Total Gear Force_X (lbs), Total Gear Force_Y (lbs), Total Gear Force_Z (lbs), Total Gear Moment_L (ft-lbs), Total Gear Moment_M (ft-lbs), Total Gear Moment_N (ft-lbs),F110-GE-400_N1[0],F110-GE-400_N2[0],Direct Thrust (engine 0 in lbs),F110-GE-400_N1[1],F110-GE-400_N2[1],Direct Thrust (engine 1 in lbs),Fuel Tank 0,Fuel Tank 1,Fuel Tank 2,Fuel Tank 3,Fuel Tank 4,Fuel Tank 5,Fuel Tank 6,Fuel Tank 7,Fuel Tank 8,Fuel Tank 9,Fuel Tank 10,Fuel Tank 11,/fdm/jsbsim/fcs/speedbrake-pos-norm,/fdm/jsbsim/fcs/slat-pos-norm-deg,/fdm/jsbsim/fcs/slat-cmd-norm,/fdm/jsbsim/propulsion/engine/fuel-flow-rate-pps,/fdm/jsbsim/propulsion/engine[1]/fuel-flow-rate-pps,/fdm/jsbsim/velocities/mach,/fdm/jsbsim/systems/hook/tailhook-cmd-norm,/fdm/jsbsim/systems/hook/hook-decel-force,/fdm/jsbsim/forces/fbx-prop-lbs,/fdm/jsbsim/gear/tailhook-pos-norm,/fdm/jsbsim/fcs/wing-sweep-dmd,/fdm/jsbsim/fcs/wing-sweep-cmd
1423.7,-1.53E-05,-0.021591516,1.53E-05,0.039562926,-0.000195514,-0.000195514,-11.35951627,-0.000278924,1.186887794,-5.97E-05,0.229762077,-0.000835601,1.13E-05,0.012725825,-7.63E-06,-0.002359409,0.230843078,-0.004152095,128.3882679,14049638.53,587.2258721,1045.889466,572.425798,2.401356131,85.57180359,0.037834701,-0.000187175,0.088430866,1.565995096,0.189445056,1.540023576,5.67857592,7.17E-05,-33.85030701,580.7469702,-0.002182662,86.98954836,308.4344134,923.3304677,-382.3791773,376.042377,-217.6646267,-382.3791773,-539.7592639,-208.6071555,-11.94094059,7970.069516,0.083504758,52824.77156,6.627893453,-56.86177074,0.113128735,-53422.61006,9018.799602,0,0,0,0,0,0,0,0,0,0,0,8961.937832,0.113128735,-53422.61006,0.000744638,3.06E-07,0.000410302,403.5810215,2116.22,515.8633758,0,0,8.743213601,0.764932073,4.80E-49,0,0,0,64626.66214,-9.30E-15,740.5457021,-9.30E-15,238475.1362,-2.03E-14,740.5457021,-2.03E-14,295350.6374,1578.20164,50777.13691,405.1854564,7.16E-17,-9.893135839,34967.30964,34929.21184,-0.053487811,9.684103268,200.8849359,-0.180640009,-0.082926842,-0.015756405,0.979920436,0.081880486,0.931476541,-0.171009041,-0.310488241,0.097880068,0.939094783,-0.122448467,-0.305821605,8.518945764,-0.000212963,43.63978846,43.83170415,-1.370684623,15096488.76,1208705.076,14442265.21,15140465.6,-362273.8613,14442265.21,5.948324142,34929.21184,38.09758126,7970.07,0.0835048,52824.8,-0.112214,-13561.5,-0.0410299,10.2917,0.30044,1808.2,1808.2,0.0052045,1,0.760585,0,0.760585,1,0.885098,0.0529903,0.0219794,0,-0.00261773,0,-1.23905,0.95745,0,0,0,0.135364,0.00518286,0.00417964,-0.000268772,0.164067,0.144458,2.97E-06,-9.51E-09,-4.06E-07,4.02E-07,-1.44E-06,1.51E-06,3.97E-07,1.48E-08,-5.92E-08,-3.55E-07,-2.89E-08,-3.18E-08,0.015013,0,-0.055,-0.000674906,-0.0132595,-0.0188519,0.150621,0.283949,0,0,0,-0.00123118,-0.0250392,-4.11E-07,8.47E-10,5.86E-09,1.07E-07,-8.87E-08,4.07E-07,-1.16E-08,0,0,0,0,0,9018.81666,3.00E-08,-0.342449193,-0.19826096,0.300440461,20.4299513,-0.19826096,0,-11.3597118,-11.3593208,-0.198255852,-0.342449193,0,10,7.70437396,0,0,-113.595163,-1.50E-05,-3.41E-06,-3.41E-06,-1.50E-05,-1.50E-05,-3.05E-05,1,1,1,1.05317692,-2.92E-05,0.00114288,2.98E-07,1.53E-05,-1.39E-05,-4.87E-06,-1.39E-05,1.18688779,0.039562927,0.119887656,2.03809015,0,0,0,-13.8145436,-0.138145436,0.988966934,0.01,0.148136437,-0.133767381,-3.21E-08,0,0,0,0,0,0,0,0,0,0,0,0,0,0,0,0,0,0,0,0,0,0,0,0,0,0,0,0,0,0,0,0,0,0,0,0,0,0,0,0,0,0,0,0,0,0,0,0,0,0,0,0,0,0,0,0,0,0,0,0,0,0,0,0,0,91.1131,94.9218,4509.4,91.1131,94.9218,4509.4,2861.2,4208.82,1195.31,286.2,1195.31,286.2,309.026,309.026,0,0,11.0231,11.0231,0,2.038090151,0.119887656,7.616932246,7.616932246,0.596274589,0,0,9018.799602,3.00E-08,0.300440479,0.300440461
1423.8,-1.53E-05,-0.021591516,1.53E-05,0.039619065,-0.000195418,-0.000195418,-11.35932344,-0.000278183,1.18857195,-6.12E-05,0.230898516,-0.000834542,1.31E-05,0.008717728,-8.22E-06,-0.002359527,0.231979515,-0.00415196,128.385221,14049307.42,587.2301801,1045.895967,572.4288709,2.401337321,85.58079855,0.023584899,-0.000189048,0.091345192,1.560638476,0.194293441,1.554232118,5.678857466,7.18E-05,-33.85661005,580.7494743,-0.002181491,87.00191127,308.5907334,923.3496525,-382.2244799,376.20472,-217.6674235,-382.2244799,-539.759528,-208.605543,-12.1668021,7971.96368,0.083629042,52834.54512,6.627544634,-56.20847026,0.113243949,-53432.55752,9018.590638,0,0,0,0,0,0,0,0,0,0,0,8962.382168,0.113243949,-53432.55752,0.000744609,3.06E-07,0.000410315,403.5773743,2116.22,515.8389029,0,0,8.743213601,0.764932073,5.03E-49,0,0,0,64626.66214,-9.30E-15,740.5457021,-9.30E-15,238475.1362,-2.03E-14,740.5457021,-2.03E-14,295350.6374,1578.20164,50777.13691,405.1854564,7.16E-17,-9.893135839,34968.33421,34929.99594,-0.053512487,9.707293304,200.8847747,-0.180635642,-0.083125135,-0.015793039,0.979903851,0.081914678,0.931539047,-0.170991885,-0.310301087,0.097905618,0.939156761,-0.122424667,-0.305632572,8.520102505,-0.000212847,43.63964068,43.83155632,-1.370763543,15096519.61,1208797.41,14442226.98,15140503.21,-362295.6279,14442226.98,5.948741949,34929.99594,38.33806467,7971.96,0.083629,52834.5,-0.110442,-13579.3,-0.0440113,10.2917,0.300438,1808.2,1808.2,0.0052045,1,0.76058,0,0.76058,1,0.885198,0.0530655,0.0220104,0,-0.0026178,0,-1.23908,0.957656,0,0,0,0.135389,0.00519022,0.00418568,-0.000268844,0.164025,0.144496,2.96E-06,-9.74E-09,-4.05E-07,4.02E-07,-1.44E-06,1.52E-06,3.97E-07,1.52E-08,-5.91E-08,-3.55E-07,-2.89E-08,-3.13E-08,0.015005,0,-0.055,-0.00067828,-0.0132601,-0.018852,0.150625,0.283959,0,0,0,-0.00123288,-0.025073,-4.11E-07,8.47E-10,6.00E-09,1.07E-07,-8.86E-08,4.06E-07,-1.25E-08,0,0,0,0,0,9018.60796,3.00E-08,-0.34244338,-0.198257595,0.300437974,20.4297823,-0.198257595,0,-11.3595189,-11.359128,-0.19825783,-0.34244338,0,10,7.71521467,0,0,-113.593234,-1.50E-05,-3.41E-06,-3.41E-06,-1.50E-05,-1.50E-05,-3.05E-05,1,1,1,1.05329527,-2.91E-05,0.001148533,3.05E-07,1.53E-05,-1.39E-05,-4.86E-06,-1.39E-05,1.18857195,0.039619065,0.120057773,2.04098214,0,0,0,-13.8145436,-0.138145436,0.988963943,0.01,0.148156403,-0.133792073,-3.21E-08,0,0,0,0,0,0,0,0,0,0,0,0,0,0,0,0,0,0,0,0,0,0,0,0,0,0,0,0,0,0,0,0,0,0,0,0,0,0,0,0,0,0,0,0,0,0,0,0,0,0,0,0,0,0,0,0,0,0,0,0,0,0,0,0,0,91.1131,94.9218,4509.3,91.1131,94.9218,4509.3,2861.2,4208.82,1195.31,286.2,1195.31,286.2,309.026,309.026,0,0,11.0231,11.0231,0,2.040982137,0.120057773,7.616932246,7.616932246,0.596281658,0,0,9018.590638,3.00E-08,0.300437988,0.300437974
1423.9,-1.53E-05,-0.021591516,1.53E-05,0.03966036,-0.000195333,-0.000195333,-11.36164093,-0.000277503,1.189810798,-6.25E-05,0.216895809,-0.000833572,1.29E-05,0.014916543,-8.53E-06,-0.002359514,0.217976805,-0.004151895,128.381468,14048934.04,587.2331221,1045.902267,572.4313867,2.401318359,85.58429074,0.032054179,-0.00018998,-0.054174551,1.553661985,0.198805015,1.566138018,5.678965186,7.18E-05,-33.86013048,580.7514315,-0.002180493,87.00870375,308.7465337,923.3693232,-382.0683475,376.3665964,-217.6696868,-382.0683475,-539.7584217,-208.6034077,-12.39330706,7972.987212,0.08374899,52840.0091,6.627379137,-55.82627519,0.113354005,-53438.11346,9018.378447,0,0,0,0,0,0,0,0,0,0,0,8962.552172,0.113354005,-53438.11346,0.00074458,3.06E-07,0.000410328,403.5736462,2116.22,515.8138902,0,0,8.743213601,0.764932073,5.23E-49,0,0,0,64626.66214,-9.30E-15,740.5457021,-9.30E-15,238475.1362,-2.03E-14,740.5457021,-2.03E-14,295350.6374,1578.20164,50777.13691,405.1854564,7.16E-17,-9.893135839,34969.38141,34930.80569,-0.053537254,9.73001919,200.8846142,-0.180631332,-0.083319454,-0.015828943,0.979887562,0.081948176,0.93160026,-0.170975055,-0.310117693,0.097930668,0.939217464,-0.122401259,-0.30544733,8.520729635,-0.000212749,43.6394929,43.83140849,-1.370842461,15096550.48,1208889.746,14442188.77,15140540.84,-362317.3947,14442188.77,5.949159757,34930.80569,38.57550282,7972.99,0.083749,52840,-0.108856,-13554.1,-0.0468398,10.2917,0.300436,1808.2,1808.2,0.0052045,1,0.760576,0,0.760576,1,0.885252,0.0531208,0.0220333,0,-0.00261829,0,-1.23936,0.957788,0,0,0,0.135403,0.00519563,0.00419011,-0.000268929,0.164037,0.14452,2.96E-06,-9.95E-09,-4.05E-07,4.02E-07,-1.43E-06,1.52E-06,3.96E-07,1.55E-08,-5.90E-08,-3.55E-07,-2.88E-08,-3.08E-08,0.0150007,0,-0.055,-0.000637165,-0.0132604,-0.0188521,0.15066,0.284024,0,0,0,-0.00123414,-0.0250273,-4.11E-07,8.47E-10,6.13E-09,1.06E-07,-8.86E-08,4.05E-07,-1.33E-08,0,0,0,0,0,9018.39604,3.00E-08,-0.342513244,-0.198298043,0.30043617,20.4296595,-0.198298043,0,-11.3618363,-11.3614456,-0.19829296,-0.342513244,0,10,7.72314335,0,0,-113.616409,-1.49E-05,-3.41E-06,-3.41E-06,-1.49E-05,-1.49E-05,-3.04E-05,1,1,1,1.05350882,-2.91E-05,0.001078881,3.11E-07,1.53E-05,-1.38E-05,-4.84E-06,-1.38E-05,1.1898108,0.03966036,0.120182909,2.04310945,0,0,0,-13.8145436,-0.138145436,0.988962321,0.01,0.148167228,-0.133816228,-3.22E-08,0,0,0,0,0,0,0,0,0,0,0,0,0,0,0,0,0,0,0,0,0,0,0,0,0,0,0,0,0,0,0,0,0,0,0,0,0,0,0,0,0,0,0,0,0,0,0,0,0,0,0,0,0,0,0,0,0,0,0,0,0,0,0,0,0,91.1131,94.9218,4509.19,91.1131,94.9218,4509.19,2861.2,4208.82,1195.31,286.2,1195.31,286.2,309.026,309.026,0,0,11.0231,11.0231,0,2.043109452,0.120182909,7.616932246,7.616932246,0.5962874,0,0,9018.378447,3.00E-08,0.300436178,0.30043617
1424,-1.53E-05,-0.021591516,1.53E-05,0.039651252,-0.000195257,-0.000195257,-11.36139001,-0.000276896,1.189537563,-6.36E-05,0.218419611,-0.000832705,1.43E-05,0.015076883,-9.04E-06,-0.002359417,0.219500604,-0.004151899,128.3770641,14048521.43,587.2348247,1045.908379,572.4338741,2.40129936,85.57959937,0.017503913,-0.000189913,-0.03855673,1.543213877,0.20260879,1.573160632,5.678766764,7.19E-05,-33.85770526,580.7533791,-0.002179548,87.00719514,308.9013731,923.389393,-381.9113886,376.5275585,-217.671457,-381.9113886,-539.7560773,-208.600801,-12.61971242,7972.356428,0.083851765,52836.23359,6.627429928,-55.92387908,0.113441524,-53434.28599,9018.162902,0,0,0,0,0,0,0,0,0,0,0,8962.239023,0.113441524,-53434.28599,0.00074455,3.06E-07,0.000410341,403.5698375,2116.22,515.7883376,0,0,8.743213601,0.764932073,5.43E-49,0,0,0,64626.66214,-9.30E-15,740.5457021,-9.30E-15,238475.1362,-2.03E-14,740.5457021,-2.03E-14,295350.6374,1578.20164,50777.13691,405.1854564,7.16E-17,-9.893135839,34970.45127,34931.64435,-0.053562042,9.751937059,200.8844544,-0.180627129,-0.083506861,-0.015863572,0.979871824,0.081980467,0.93165925,-0.170958796,-0.309940857,0.097954852,0.939275978,-0.122378536,-0.305268699,8.520555909,-0.000212656,43.63934512,43.83126066,-1.370921379,15096581.36,1208982.084,14442150.57,15140578.48,-362339.1618,14442150.57,5.949577564,34931.64435,38.80669353,7972.36,0.0838518,52836.2,-0.107532,-13552.8,-0.0493497,10.2917,0.300437,1808.19,1808.19,0.0052045,1,0.760573,0,0.760573,1,0.885237,0.0531086,0.0220283,0,-0.0026183,0,-1.23933,0.957756,0,0,0,0.135399,0.00519443,0.00418913,-0.00026892,0.16404,0.144514,2.96E-06,-1.01E-08,-4.04E-07,4.02E-07,-1.43E-06,1.52E-06,3.96E-07,1.58E-08,-5.90E-08,-3.55E-07,-2.87E-08,-3.05E-08,0.0150019,0,-0.055,-0.000641636,-0.0132603,-0.0188521,0.150655,0.284016,0,0,0,-0.00123386,-0.0250257,-4.10E-07,8.46E-10,6.25E-09,1.06E-07,-8.86E-08,4.04E-07,-1.40E-08,0,0,0,0,0,9018.18077,3.00E-08,-0.34250568,-0.198293663,0.300436821,20.4297038,-0.198293663,0,-11.3615853,-11.3611947,-0.198294026,-0.34250568,0,10,7.72123733,0,0,-113.6139,-1.49E-05,-3.41E-06,-3.41E-06,-1.49E-05,-1.49E-05,-3.04E-05,1,1,1,1.05340354,-2.91E-05,0.00108646,3.17E-07,1.53E-05,-1.38E-05,-4.83E-06,-1.38E-05,1.18953756,0.039651252,0.120155309,2.04264026,0,0,0,-13.8145436,-0.138145436,0.98896277,0.01,0.148164229,-0.133807325,-3.22E-08,0,0,0,0,0,0,0,0,0,0,0,0,0,0,0,0,0,0,0,0,0,0,0,0,0,0,0,0,0,0,0,0,0,0,0,0,0,0,0,0,0,0,0,0,0,0,0,0,0,0,0,0,0,0,0,0,0,0,0,0,0,0,0,0,0,91.1131,94.9218,4509.08,91.1131,94.9218,4509.08,2861.2,4208.82,1195.31,286.2,1195.31,286.2,309.026,309.026,0,0,11.0231,11.0231,0,2.04264026,0.120155309,7.616932246,7.616932246,0.596291942,0,0,9018.162902,3.00E-08,0.300436825,0.300436821
1424.1,-1.53E-05,-0.021591516,1.53E-05,0.039649865,-0.000195189,-0.000195189,-11.3611464,-0.000276316,1.189495936,-6.47E-05,0.219889587,-0.000831876,1.56E-05,0.014207544,-9.52E-06,-0.002359192,0.220970577,-0.004151948,128.3719939,14048076.91,587.2353096,1045.914309,572.4349079,2.401280382,85.57640334,0.003003398,-0.00018953,-0.02438198,1.533273677,0.206518843,1.580908154,5.678625493,7.19E-05,-33.85616111,580.7538682,-0.0021786,87.0072035,309.0551947,923.4098488,-381.7536894,376.6875483,-217.6727413,-381.7536894,-539.752517,-208.5977314,-12.84591674,7971.99335,0.083947355,52833.82381,6.627429488,-55.92769135,0.113522864,-53431.849,9017.94376,0,0,0,0,0,0,0,0,0,0,0,8962.016068,0.113522864,-53431.849,0.000744519,3.06E-07,0.000410355,403.5656172,2116.22,515.7617211,0,0,8.743213601,0.764932073,5.58E-49,0,0,0,64626.66214,-9.30E-15,740.5457021,-9.30E-15,238475.1362,-2.03E-14,740.5457021,-2.03E-14,295350.6374,1578.20164,50777.13691,405.1854564,7.16E-17,-9.893135839,34971.54375,34932.48946,-0.053586992,9.774005425,200.8842946,-0.180622898,-0.083695552,-0.015898439,0.97985594,0.08201298,0.931718614,-0.170942424,-0.309762786,0.097979192,0.939334858,-0.122355681,-0.305088824,8.520549647,-0.000212563,43.63919734,43.83111283,-1.371000296,15096612.26,1209074.424,14442112.38,15140616.14,-362360.929,14442112.38,5.949995372,34932.48946,39.05406358,7971.99,0.0839474,52833.8,-0.106364,-13555.8,-0.0517414,10.2917,0.300437,1808.19,1808.19,0.0052045,1,0.760571,0,0.760571,1,0.885237,0.0531068,0.0220275,0,-0.00261824,0,-1.2393,0.957753,0,0,0,0.135399,0.00519425,0.00418898,-0.000268914,0.164036,0.144513,2.96E-06,-1.03E-08,-4.04E-07,4.02E-07,-1.43E-06,1.52E-06,3.96E-07,1.60E-08,-5.89E-08,-3.55E-07,-2.87E-08,-3.01E-08,0.015002,0,-0.055,-0.000645954,-0.0132603,-0.0188521,0.150652,0.28401,0,0,0,-0.00123382,-0.0250325,-4.10E-07,8.46E-10,6.35E-09,1.06E-07,-8.85E-08,4.03E-07,-1.47E-08,0,0,0,0,0,9017.96281,3.00E-08,-0.342498336,-0.198289412,0.300437034,20.4297183,-0.198289412,0,-11.3613416,-11.3609512,-0.198289757,-0.342498336,0,10,7.72070776,0,0,-113.611464,-1.49E-05,-3.41E-06,-3.41E-06,-1.49E-05,-1.49E-05,-3.04E-05,1,1,1,1.05334616,-2.90E-05,0.001093772,3.22E-07,1.53E-05,-1.38E-05,-4.82E-06,-1.38E-05,1.18949594,0.039649865,0.120151105,2.04256878,0,0,0,-13.8145436,-0.138145436,0.988962787,0.01,0.148164121,-0.133806583,-3.22E-08,0,0,0,0,0,0,0,0,0,0,0,0,0,0,0,0,0,0,0,0,0,0,0,0,0,0,0,0,0,0,0,0,0,0,0,0,0,0,0,0,0,0,0,0,0,0,0,0,0,0,0,0,0,0,0,0,0,0,0,0,0,0,0,0,0,91.1131,94.9218,4508.97,91.1131,94.9218,4508.97,2861.2,4208.82,1195.31,286.2,1195.31,286.2,309.026,309.026,0,0,11.0231,11.0231,0,2.042568778,0.120151105,7.616932246,7.616932246,0.596295552,0,0,9017.94376,3.00E-08,0.300437047,0.300437034
1424.2,-1.53E-05,-0.021591516,1.53E-05,0.03965631,-0.000195127,-0.000195127,-11.36091953,-0.000275761,1.189689308,-6.56E-05,0.221254246,-0.000831084,1.67E-05,0.012956452,-9.98E-06,-0.002358855,0.222335233,-0.004152039,128.3663005,14047586.65,587.2345613,1045.920053,572.4344966,2.401261454,85.57454087,-0.011369616,-0.000188864,-0.012145177,1.523829254,0.210533124,1.589365046,5.678537293,7.20E-05,-33.85547903,580.7529074,-0.002177617,87.00856591,309.208044,923.4307002,-381.5951838,376.846612,-217.6735347,-381.5951838,-539.747725,-208.5941927,-13.07199899,7971.885729,0.084033718,52832.75131,6.627384424,-55.84461777,0.113595519,-53430.77254,9017.721489,0,0,0,0,0,0,0,0,0,0,0,8961.876871,0.113595519,-53430.77254,0.000744488,3.06E-07,0.000410368,403.5616404,2116.22,515.7350789,0,0,8.743213601,0.764932073,5.73E-49,0,0,0,64626.66214,-9.30E-15,740.5457021,-9.30E-15,238475.1362,-2.03E-14,740.5457021,-2.03E-14,295350.6374,1578.20164,50777.13691,405.1854564,7.16E-17,-9.893135839,34972.65884,34933.36344,-0.053612094,9.79621632,200.8841347,-0.180618642,-0.083885458,-0.015933531,0.979839915,0.082045703,0.931778328,-0.170925945,-0.309583545,0.098003681,0.939394082,-0.122332699,-0.304907769,8.520694997,-0.000212467,43.63904956,43.830965,-1.371079211,15096643.17,1209166.766,14442074.22,15140653.82,-362382.6963,14442074.22,5.950413179,34933.36344,39.29518543,7971.89,0.0840337,52832.8,-0.105355,-13560.7,-0.0539934,10.2917,0.300437,1808.19,1808.19,0.0052045,1,0.76057,0,0.76057,1,0.885249,0.0531154,0.0220311,0,-0.00261819,0,-1.23928,0.957778,0,0,0,0.135402,0.0051951,0.00418968,-0.000268917,0.164028,0.144518,2.96E-06,-1.04E-08,-4.03E-07,4.01E-07,-1.42E-06,1.52E-06,3.96E-07,1.63E-08,-5.88E-08,-3.55E-07,-2.86E-08,-2.98E-08,0.0150009,0,-0.055,-0.000649967,-0.0132603,-0.0188521,0.15065,0.284006,0,0,0,-0.00123401,-0.0250426,-4.10E-07,8.46E-10,6.44E-09,1.06E-07,-8.85E-08,4.02E-07,-1.53E-08,0,0,0,0,0,9017.74083,3.00E-08,-0.342491496,-0.198285452,0.300436927,20.429711,-0.198285452,0,-11.3611147,-11.3607244,-0.198285767,-0.342491496,0,10,7.72133119,0,0,-113.609195,-1.49E-05,-3.41E-06,-3.41E-06,-1.49E-05,-1.49E-05,-3.04E-05,1,1,1,1.05330499,-2.90E-05,0.00110056,3.27E-07,1.53E-05,-1.38E-05,-4.81E-06,-1.38E-05,1.18968931,0.03965631,0.120170637,2.04290083,0,0,0,-13.8145436,-0.138145436,0.988962411,0.01,0.14816663,-0.133809297,-3.23E-08,0,0,0,0,0,0,0,0,0,0,0,0,0,0,0,0,0,0,0,0,0,0,0,0,0,0,0,0,0,0,0,0,0,0,0,0,0,0,0,0,0,0,0,0,0,0,0,0,0,0,0,0,0,0,0,0,0,0,0,0,0,0,0,0,0,91.1131,94.9218,4508.86,91.1131,94.9218,4508.86,2861.2,4208.82,1195.31,286.2,1195.31,286.2,309.026,309.026,0,0,11.0231,11.0231,0,2.042900832,0.120170637,7.616932246,7.616932246,0.596297731,0,0,9017.721489,3.00E-08,0.30043682,0.300436927
1424.3,-1.53E-05,-0.021591516,1.53E-05,0.039669193,-0.000195071,-0.000195071,-11.36071605,-0.000275231,1.190075802,-6.64E-05,0.222474175,-0.000830326,1.77E-05,0.011356691,-1.04E-05,-0.002358421,0.223555159,-0.004152169,128.3599528,14047056.97,587.2325648,1045.925609,572.4326559,2.401242604,85.57380714,-0.025556707,-0.000187947,-0.00206959,1.514777442,0.214633402,1.59839648,5.678494165,7.20E-05,-33.85548955,580.7505126,-0.002176571,87.01107572,309.3599658,923.451957,-381.4358071,377.0047954,-217.6738323,-381.4358071,-539.7416858,-208.590179,-13.29803689,7971.987621,0.084108976,52832.75256,6.627299874,-55.68707488,0.113657061,-53430.78915,9017.495881,0,0,0,0,0,0,0,0,0,0,0,8961.808806,0.113657061,-53430.78915,0.000744456,3.06E-07,0.000410382,403.5575831,2116.22,515.7078977,0,0,8.743213601,0.764932073,5.85E-49,0,0,0,64626.66214,-9.30E-15,740.5457021,-9.30E-15,238475.1362,-2.03E-14,740.5457021,-2.03E-14,295350.6374,1578.20164,50777.13691,405.1854564,7.16E-17,-9.893135839,34973.79655,34934.27588,-0.053637337,9.818557338,200.8839748,-0.180614362,-0.084076473,-0.015968827,0.979823757,0.082078619,0.931838359,-0.170909366,-0.309403235,0.098028304,0.939453618,-0.122309601,-0.304725636,8.520971795,-0.000212366,43.63890179,43.83081717,-1.371158124,15096674.1,1209259.11,14442036.07,15140691.51,-362404.4637,14442036.07,5.950830987,34934.27588,39.52044763,7971.99,0.084109,52832.8,-0.104503,-13567.1,-0.056087,10.2917,0.300436,1808.18,1808.18,0.0052045,1,0.760569,0,0.760569,1,0.885273,0.0531327,0.0220382,0,-0.00261816,0,-1.23927,0.957826,0,0,0,0.135408,0.00519678,0.00419106,-0.000268928,0.164016,0.144527,2.96E-06,-1.06E-08,-4.03E-07,4.01E-07,-1.42E-06,1.52E-06,3.96E-07,1.65E-08,-5.88E-08,-3.54E-07,-2.86E-08,-2.96E-08,0.014999,0,-0.055,-0.000653559,-0.0132605,-0.0188521,0.150649,0.284004,0,0,0,-0.0012344,-0.0250557,-4.10E-07,8.45E-10,6.52E-09,1.06E-07,-8.85E-08,4.01E-07,-1.59E-08,0,0,0,0,0,9017.51552,3.00E-08,-0.342485362,-0.1982819,0.300436432,20.4296774,-0.1982819,0,-11.3609111,-11.360521,-0.198282178,-0.342485362,0,10,7.7232532,0,0,-113.607161,-1.49E-05,-3.40E-06,-3.40E-06,-1.49E-05,-1.49E-05,-3.04E-05,1,1,1,1.05328215,-2.90E-05,0.001106628,3.31E-07,1.53E-05,-1.37E-05,-4.80E-06,-1.37E-05,1.1900758,0.039669193,0.120209677,2.04356451,0,0,0,-13.8145436,-0.138145436,0.988961695,0.01,0.148171408,-0.133815426,-3.23E-08,0,0,0,0,0,0,0,0,0,0,0,0,0,0,0,0,0,0,0,0,0,0,0,0,0,0,0,0,0,0,0,0,0,0,0,0,0,0,0,0,0,0,0,0,0,0,0,0,0,0,0,0,0,0,0,0,0,0,0,0,0,0,0,0,0,91.1131,94.9218,4508.75,91.1131,94.9218,4508.75,2861.2,4208.82,1195.31,286.2,1195.31,286.2,309.026,309.026,0,0,11.0231,11.0231,0,2.043564508,0.120209677,7.616932246,7.616932246,0.596298701,0,0,9017.495881,3.00E-08,0.30043622,0.300436432
1424.4,-1.53E-05,-0.021591516,1.53E-05,0.039687448,-0.00019502,-0.00019502,-11.36054108,-0.000274723,1.190623444,-6.72E-05,0.223519155,-0.000829601,1.85E-05,0.009499939,-1.08E-05,-0.002357906,0.224600137,-0.004152335,128.3529455,14046487.57,587.2293076,1045.930977,572.4294066,2.401223854,85.57397752,-0.039511017,-0.000186815,0.00568481,1.506034048,0.218803879,1.607889029,5.678488218,7.20E-05,-33.85605215,580.7467051,-0.002175439,87.014506,309.5109959,923.473627,-381.2755066,377.1621348,-217.6736299,-381.2755066,-539.7343864,-208.5856852,-13.5240929,7972.258039,0.084171564,52833.60947,6.627182564,-55.46752994,0.113705446,-53431.67704,9017.26695,0,0,0,0,0,0,0,0,0,0,0,8961.79942,0.113705446,-53431.67704,0.000744424,3.06E-07,0.000410397,403.5534451,2116.22,515.6801777,0,0,8.743213601,0.764932073,5.98E-49,0,0,0,64626.66214,-9.30E-15,740.5457021,-9.30E-15,238475.1362,-2.03E-14,740.5457021,-2.03E-14,295350.6374,1578.20164,50777.13691,405.1854564,7.16E-17,-9.893135839,34974.95686,34935.18834,-0.05366271,9.841012544,200.8838148,-0.18061006,-0.084268462,-0.016004304,0.979807479,0.082111703,0.931898663,-0.170892699,-0.309221984,0.098053046,0.939513421,-0.122286401,-0.304542554,8.521357838,-0.000212257,43.63875402,43.83066934,-1.371237036,15096705.04,1209351.456,14441997.93,15140729.22,-362426.2311,14441997.93,5.951248794,34935.18834,39.76829749,7972.26,0.0841716,52833.6,-0.103807,-13574.7,-0.0580069,10.2917,0.300435,1808.18,1808.18,0.0052045,1,0.760569,0,0.760569,1,0.885307,0.0531571,0.0220483,0,-0.00261813,0,-1.23927,0.957894,0,0,0,0.135417,0.00519918,0.00419303,-0.000268947,0.164,0.14454,2.96E-06,-1.07E-08,-4.03E-07,4.01E-07,-1.42E-06,1.53E-06,3.96E-07,1.67E-08,-5.87E-08,-3.54E-07,-2.85E-08,-2.94E-08,0.0149964,0,-0.055,-0.000656641,-0.0132607,-0.0188521,0.150648,0.284005,0,0,0,-0.00123495,-0.0250712,-4.10E-07,8.45E-10,6.60E-09,1.06E-07,-8.84E-08,4.00E-07,-1.64E-08,0,0,0,0,0,9017.28688,3.00E-08,-0.342480087,-0.198278847,0.3004356,20.4296208,-0.198278847,0,-11.3607361,-11.3603461,-0.19827908,-0.342480087,0,10,7.72627213,0,0,-113.605411,-1.49E-05,-3.40E-06,-3.40E-06,-1.49E-05,-1.49E-05,-3.04E-05,1,1,1,1.05327443,-2.90E-05,0.001111826,3.35E-07,1.53E-05,-1.37E-05,-4.79E-06,-1.37E-05,1.19062344,0.039687448,0.120264994,2.0445049,0,0,0,-13.8145436,-0.138145436,0.988960697,0.01,0.148178071,-0.133824425,-3.23E-08,0,0,0,0,0,0,0,0,0,0,0,0,0,0,0,0,0,0,0,0,0,0,0,0,0,0,0,0,0,0,0,0,0,0,0,0,0,0,0,0,0,0,0,0,0,0,0,0,0,0,0,0,0,0,0,0,0,0,0,0,0,0,0,0,0,91.1131,94.9218,4508.63,91.1131,94.9218,4508.63,2861.2,4208.82,1195.31,286.2,1195.31,286.2,309.026,309.026,0,0,11.0231,11.0231,0,2.044504904,0.120264994,7.616932246,7.616932246,0.596298451,0,0,9017.26695,3.00E-08,0.300435301,0.3004356
1424.5,-1.53E-05,-0.021591516,1.53E-05,0.039703998,-0.000194973,-0.000194973,-11.36039798,-0.000274237,1.191119941,-6.79E-05,0.224369007,-0.000828906,1.91E-05,0.007407164,-1.11E-05,-0.002357326,0.225449986,-0.004152535,128.3453558,14045856.18,587.2247795,1045.936154,572.4247735,2.401205225,85.57481679,-0.053208925,-0.000185506,0.011420026,1.497293106,0.222991333,1.617445985,5.678501849,7.21E-05,-33.85666494,580.7415101,-0.0021742,87.01861885,309.6611613,923.4957164,-381.1142416,377.3186576,-217.672924,-381.1142416,-539.7258161,-208.5807072,-13.75021498,7972.586334,0.084220335,52834.53772,6.6270261,-55.21450733,0.113738839,-53432.64415,9017.03544,0,0,0,0,0,0,0,0,0,0,0,8961.820933,0.113738839,-53432.64415,0.000744392,3.06E-07,0.000410412,403.5502986,2116.22,515.6536165,0,0,8.743213601,0.764932073,6.04E-49,0,0,0,64626.66214,-9.30E-15,740.5457021,-9.30E-15,238475.1362,-2.03E-14,740.5457021,-2.03E-14,295350.6374,1578.20164,50777.13691,405.1854564,7.16E-17,-9.893135839,34976.13978,34935.96946,-0.053688206,9.863563471,200.8836547,-0.180605738,-0.084461265,-0.016039931,0.979791091,0.082144927,0.93195919,-0.170875957,-0.309039943,0.098077885,0.939573443,-0.122263115,-0.304358677,8.521829807,-0.000212138,43.63860624,43.83052151,-1.371315946,15096736,1209443.804,14441959.81,15140766.94,-362447.9984,14441959.81,5.951666601,34935.96946,40.17009551,7972.59,0.0842203,52834.5,-0.103261,-13583.3,-0.0597413,10.2917,0.300434,1808.17,1808.17,0.0052045,1,0.76057,0,0.76057,1,0.885347,0.0531793,0.0220575,0,-0.00261812,0,-1.23928,0.957966,0,0,0,0.135427,0.00520134,0.00419482,-0.000268972,0.163982,0.144554,2.95E-06,-1.08E-08,-4.02E-07,4.01E-07,-1.41E-06,1.53E-06,3.95E-07,1.69E-08,-5.87E-08,-3.54E-07,-2.85E-08,-2.93E-08,0.0149931,0,-0.055,-0.000659151,-0.0132609,-0.0188522,0.150649,0.284007,0,0,0,-0.00123545,-0.0250885,-4.09E-07,8.44E-10,6.67E-09,1.06E-07,-8.84E-08,4.00E-07,-1.69E-08,0,0,0,0,0,9017.05467,3.00E-08,-0.342475773,-0.198276349,0.300434399,20.4295392,-0.198276349,0,-11.360593,-11.360203,-0.198276532,-0.342475773,0,10,7.7305536,0,0,-113.60398,-1.49E-05,-3.40E-06,-3.40E-06,-1.49E-05,-1.49E-05,-3.04E-05,1,1,1,1.05328113,-2.89E-05,0.001116054,3.39E-07,1.53E-05,-1.37E-05,-4.79E-06,-1.37E-05,1.19111994,0.039703998,0.120315146,2.04535747,0,0,0,-13.8145436,-0.138145436,0.988959476,0.01,0.148186217,-0.133836233,-3.24E-08,0,0,0,0,0,0,0,0,0,0,0,0,0,0,0,0,0,0,0,0,0,0,0,0,0,0,0,0,0,0,0,0,0,0,0,0,0,0,0,0,0,0,0,0,0,0,0,0,0,0,0,0,0,0,0,0,0,0,0,0,0,0,0,0,0,91.1131,94.9218,4508.52,91.1131,94.9218,4508.52,2861.2,4208.82,1195.31,286.2,1195.31,286.2,309.026,309.026,0,0,11.0231,11.0231,0,2.045357475,0.120315146,7.616932246,7.616932246,0.596296177,0,0,9017.03544,3.00E-08,0.300434381,0.300434399
1424.6,-1.53E-05,-0.017654689,1.53E-05,0.039728934,-0.000194929,-0.000194929,-11.23031773,-0.000273772,1.191868013,-6.86E-05,0.219396957,-0.000828242,1.89E-05,-0.217206681,-1.14E-05,-0.002356699,0.220477932,-0.004152766,128.3370177,14045206.22,587.2189706,1045.94114,572.4188557,2.401186732,85.57559652,-0.058162175,-0.000184025,-0.04249005,1.489461059,0.227326705,1.628144323,5.678579392,7.21E-05,-33.85874586,580.7350284,-0.002172837,87.02267608,309.810494,923.518232,-380.9519665,377.4743966,-217.6717113,-380.9519665,-539.7159645,-208.5752409,-13.9764582,7973.166489,0.084253434,52837.77109,6.626949426,-54.85658765,0.113755875,-53435.92825,9016.799899,0,0,0,0,0,0,0,0,0,0,0,8961.943312,0.113755875,-53435.92825,0.000744358,3.06E-07,0.000410427,403.5460195,2116.22,515.6248503,0,0,8.743213601,0.764932073,6.13E-49,0,0,0,64626.66214,-9.30E-15,740.5457021,-9.30E-15,238475.1362,-2.03E-14,740.5457021,-2.03E-14,295350.6374,1578.20164,50777.13691,405.1854564,7.16E-17,-9.893135839,34977.34532,34937.91044,-0.053713808,9.886142983,200.8834947,-0.180601405,-0.08465431,-0.016075603,0.979774645,0.082178191,0.932019758,-0.170859189,-0.308857658,0.09810275,0.939633505,-0.122239799,-0.304174553,8.522315024,-0.000212007,43.63845848,43.83037369,-1.371394853,15096766.98,1209536.155,14441921.71,15140804.68,-362469.7656,14441921.71,5.952084409,34937.91044,39.43465939,7973.17,0.0842534,52837.8,-0.102864,-14518.4,-0.0613043,10.2917,0.300433,1808.17,1808.17,0.0052045,1,0.760571,0,0.760571,1,0.885389,0.0532127,0.0220713,0,-0.00258808,0,-1.22511,0.958085,0,0,0,0.135438,0.00520461,0.0041975,-0.000265913,0.162088,0.144574,2.95E-06,-1.09E-08,-4.02E-07,4.01E-07,-1.41E-06,1.53E-06,3.95E-07,1.70E-08,-5.87E-08,-3.54E-07,-2.84E-08,-2.91E-08,0.0149898,0,-0.055,-0.000644559,-0.0132612,-0.0188522,0.148927,0.280761,0,0,0,-0.0012362,-0.0268173,-4.09E-07,8.34E-10,6.74E-09,1.06E-07,-8.84E-08,3.99E-07,-1.74E-08,0,0,0,0,0,9016.8194,3.00E-08,-0.338554315,-0.19600602,0.300433047,20.4294472,-0.19600602,0,-11.2305127,-11.2301228,-0.196000765,-0.338554315,0,10,7.73515743,0,0,-112.303177,-1.49E-05,-3.40E-06,-3.40E-06,-1.49E-05,-1.49E-05,-3.03E-05,1,1,1,1.0507471,-2.89E-05,0.001091322,3.42E-07,1.53E-05,-1.37E-05,-4.78E-06,-1.37E-05,1.19186801,0.039728934,0.120390708,2.04664204,0,0,0,-13.8145436,-0.138145436,0.988958221,0.01,0.148194593,-0.13385326,-3.24E-08,0,0,0,0,0,0,0,0,0,0,0,0,0,0,0,0,0,0,0,0,0,0,0,0,0,0,0,0,0,0,0,0,0,0,0,0,0,0,0,0,0,0,0,0,0,0,0,0,0,0,0,0,0,0,0,0,0,0,0,0,0,0,0,0,0,91.1131,94.9218,4508.4,91.1131,94.9218,4508.4,2861.2,4208.82,1195.31,286.2,1195.31,286.2,309.026,309.026,0,0,11.0231,11.0231,0,2.046642042,0.120390708,7.616932246,7.616932246,0.59629344,0,0,9016.799899,3.00E-08,0.300433024,0.300433047
1424.7,-1.53E-05,-0.021591516,1.53E-05,0.039731154,-0.000194887,-0.000194887,-11.36137191,-0.000273353,1.191934633,-6.93E-05,0.218485847,-0.000827643,1.89E-05,0.009808137,-1.16E-05,-0.002356085,0.219566819,-0.004153038,128.3280286,14044517.01,587.2119203,1045.945939,572.4126142,2.401168413,85.57015395,-0.069124688,-0.000182062,-0.050150065,1.4782817,0.231019946,1.634283188,5.678351524,7.21E-05,-33.85520001,580.7282372,-0.002171314,87.02042223,309.9588678,923.5411475,-380.7888608,377.6292233,-217.6700049,-380.7888608,-539.704873,-208.5693023,-14.20260593,7972.34659,0.084260004,52832.23553,6.626936616,-54.97732071,0.113739083,-53430.3322,9016.561011,0,0,0,0,0,0,0,0,0,0,0,8961.58369,0.113739083,-53430.3322,0.000744324,3.06E-07,0.000410442,403.5416593,2116.22,515.5955445,0,0,8.743213601,0.764932073,6.27E-49,0,0,0,64626.66214,-9.30E-15,740.5457021,-9.30E-15,238475.1362,-2.03E-14,740.5457021,-2.03E-14,295350.6374,1578.20164,50777.13691,405.1854564,7.16E-17,-9.893135839,34978.57349,34940.127,-0.053739408,9.908112241,200.8833353,-0.180597152,-0.084842134,-0.016110313,0.979758612,0.082210543,0.932078646,-0.170842853,-0.308680325,0.09812696,0.939691911,-0.122217001,-0.303995422,8.522195737,-0.000211861,43.63831071,43.83022587,-1.371473758,15096797.96,1209628.508,14441883.62,15140842.44,-362491.5327,14441883.62,5.952502216,34940.127,38.44627313,7972.35,0.08426,52832.2,-0.102687,-13572.5,-0.0624229,10.2917,0.300433,1808.17,1808.17,0.0052045,1,0.760574,0,0.760574,1,0.885379,0.0532157,0.0220725,0,-0.00261836,0,-1.2394,0.958049,0,0,0,0.135435,0.0052049,0.00419773,-0.000269017,0.163983,0.144569,2.95E-06,-1.10E-08,-4.02E-07,4.01E-07,-1.41E-06,1.53E-06,3.95E-07,1.72E-08,-5.86E-08,-3.54E-07,-2.84E-08,-2.91E-08,0.0149906,0,-0.055,-0.000641879,-0.0132611,-0.0188522,0.150664,0.284036,0,0,0,-0.00123628,-0.0250717,-4.09E-07,8.43E-10,6.80E-09,1.06E-07,-8.84E-08,3.98E-07,-1.77E-08,0,0,0,0,0,9016.58079,3.00E-08,-0.342505134,-0.198293347,0.300432773,20.4294286,-0.198293347,0,-11.3615668,-11.361177,-0.198293585,-0.342505134,0,10,7.73531887,0,0,-113.613719,-1.49E-05,-3.40E-06,-3.40E-06,-1.49E-05,-1.49E-05,-3.03E-05,1,1,1,1.05326788,-2.89E-05,0.00108679,3.45E-07,1.53E-05,-1.36E-05,-4.77E-06,-1.36E-05,1.19193463,0.039731154,0.120397438,2.04675644,0,0,0,-13.8145436,-0.138145436,0.988958529,0.01,0.148192534,-0.133848431,-3.24E-08,0,0,0,0,0,0,0,0,0,0,0,0,0,0,0,0,0,0,0,0,0,0,0,0,0,0,0,0,0,0,0,0,0,0,0,0,0,0,0,0,0,0,0,0,0,0,0,0,0,0,0,0,0,0,0,0,0,0,0,0,0,0,0,0,0,91.1131,94.9218,4508.28,91.1131,94.9218,4508.28,2861.2,4208.82,1195.31,286.2,1195.31,286.2,309.026,309.026,0,0,11.0231,11.0231,0,2.04675644,0.120397438,7.616932246,7.616932246,0.596289502,0,0,9016.561011,3.00E-08,0.300432745,0.300432773
1424.8,-1.53E-05,-0.021591516,1.53E-05,0.039728679,-0.000194845,-0.000194845,-11.36121256,-0.000272945,1.191860367,-6.99E-05,0.219447694,-0.000827061,1.90E-05,0.009323902,-1.17E-05,-0.002355456,0.220528664,-0.004153329,128.3184048,14043789.44,587.2036652,1045.950556,572.4050203,2.401150286,85.56561656,-0.082862679,-0.000180165,-0.040061922,1.467685085,0.23481097,1.64116493,5.678193383,7.20E-05,-33.85260003,580.7200902,-0.002169609,87.01908524,310.1061607,923.564438,-380.6250957,377.783014,-217.6678166,-380.6250957,-539.6925804,-208.5629066,-14.42845064,7971.735409,0.08424949,52828.17801,6.626935705,-54.98463579,0.113703581,-53426.2289,9016.318747,0,0,0,0,0,0,0,0,0,0,0,8961.334111,0.113703581,-53426.2289,0.000744289,3.05E-07,0.000410458,403.537219,2116.22,515.5657007,0,0,8.743213601,0.764932073,6.39E-49,0,0,0,64626.66214,-9.30E-15,740.5457021,-9.30E-15,238475.1362,-2.03E-14,740.5457021,-2.03E-14,295350.6374,1578.20164,50777.13691,405.1854564,7.16E-17,-9.893135839,34979.82427,34941.81493,-0.053765118,9.930163625,200.8831759,-0.180592882,-0.085030656,-0.016145152,0.979742483,0.082243016,0.932137722,-0.170826451,-0.308502313,0.098151254,0.939750501,-0.122194128,-0.303815605,8.522184526,-0.000211697,43.63816295,43.83007805,-1.371552661,15096828.97,1209720.863,14441845.55,15140880.21,-362513.2996,14441845.55,5.952920024,34941.81493,38.00912247,7971.74,0.0842495,52828.2,-0.102633,-13573.7,-0.0633701,10.2917,0.300433,1808.16,1808.16,0.0052045,1,0.760577,0,0.760577,1,0.885378,0.0532124,0.0220711,0,-0.00261832,0,-1.23938,0.958043,0,0,0,0.135435,0.00520458,0.00419746,-0.000269012,0.163981,0.144568,2.95E-06,-1.11E-08,-4.01E-07,4.01E-07,-1.41E-06,1.53E-06,3.95E-07,1.73E-08,-5.86E-08,-3.54E-07,-2.83E-08,-2.91E-08,0.0149907,0,-0.055,-0.000644704,-0.0132611,-0.0188522,0.150662,0.284031,0,0,0,-0.0012362,-0.0250757,-4.08E-07,8.43E-10,6.86E-09,1.06E-07,-8.84E-08,3.98E-07,-1.80E-08,0,0,0,0,0,9016.33881,3.00E-08,-0.34250033,-0.198290566,0.300432683,20.4294225,-0.198290566,0,-11.3614074,-11.3610177,-0.198290792,-0.34250033,0,10,7.73454687,0,0,-113.612126,-1.49E-05,-3.40E-06,-3.40E-06,-1.49E-05,-1.49E-05,-3.03E-05,1,1,1,1.05318096,-2.89E-05,0.001091574,3.49E-07,1.53E-05,-1.36E-05,-4.76E-06,-1.36E-05,1.19186037,0.039728679,0.120389936,2.04662891,0,0,0,-13.8145436,-0.138145436,0.988958558,0.01,0.14819234,-0.133847525,-3.24E-08,0,0,0,0,0,0,0,0,0,0,0,0,0,0,0,0,0,0,0,0,0,0,0,0,0,0,0,0,0,0,0,0,0,0,0,0,0,0,0,0,0,0,0,0,0,0,0,0,0,0,0,0,0,0,0,0,0,0,0,0,0,0,0,0,0,91.1131,94.9218,4508.16,91.1131,94.9218,4508.16,2861.2,4208.82,1195.31,286.2,1195.31,286.2,309.026,309.026,0,0,11.0231,11.0231,0,2.046628913,0.120389936,7.616932246,7.616932246,0.5962844,0,0,9016.318747,3.00E-08,0.300432651,0.300432683
1424.9,-1.53E-05,-0.021591516,1.53E-05,0.039732326,-0.000194803,-0.000194803,-11.36106337,-0.000272546,1.191969779,-7.05E-05,0.220344991,-0.00082649,1.91E-05,0.00849205,-1.19E-05,-0.002354824,0.221425957,-0.004153635,128.308112,14043031.12,587.1941934,1045.954989,572.396056,2.401132343,85.56202583,-0.096519395,-0.000178388,-0.031238832,1.457436634,0.238672962,1.6485368,5.678074386,7.20E-05,-33.85060102,580.7105692,-0.002167733,87.01870828,310.252414,923.5881116,-380.4606146,377.9358105,-217.6651429,-380.4606146,-539.6790746,-208.5560488,-14.65406171,7971.303832,0.084223358,52825.05252,6.626902403,-54.92654777,0.113650853,-53423.07406,9016.072858,0,0,0,0,0,0,0,0,0,0,0,8961.146311,0.113650853,-53423.07406,0.000744253,3.05E-07,0.000410473,403.5323144,2116.22,515.5347115,0,0,8.743213601,0.764932073,6.50E-49,0,0,0,64626.66214,-9.30E-15,740.5457021,-9.30E-15,238475.1362,-2.03E-14,740.5457021,-2.03E-14,295350.6374,1578.20164,50777.13691,405.1854564,7.16E-17,-9.893135839,34981.09761,34943.53488,-0.05379094,9.952308506,200.8830165,-0.180588592,-0.085219975,-0.016180138,0.979726247,0.082275625,0.932197015,-0.170809977,-0.308323529,0.098175643,0.939809304,-0.12217117,-0.303635011,8.522285823,-0.000211518,43.63801519,43.82993024,-1.371631561,15096859.98,1209813.221,14441807.5,15140918,-362535.0663,14441807.5,5.953337831,34943.53488,37.56251996,7971.3,0.0842234,52825.1,-0.10268,-13576.4,-0.0641327,10.2917,0.300432,1808.16,1808.16,0.0052045,1,0.760581,0,0.760581,1,0.885387,0.0532172,0.0220732,0,-0.00261829,0,-1.23937,0.958059,0,0,0,0.135437,0.00520506,0.00419786,-0.000269015,0.163976,0.144571,2.95E-06,-1.12E-08,-4.01E-07,4.01E-07,-1.41E-06,1.53E-06,3.94E-07,1.75E-08,-5.85E-08,-3.54E-07,-2.83E-08,-2.91E-08,0.01499,0,-0.055,-0.000647343,-0.0132611,-0.0188522,0.150661,0.284029,0,0,0,-0.00123631,-0.0250826,-4.08E-07,8.42E-10,6.93E-09,1.06E-07,-8.83E-08,3.97E-07,-1.82E-08,0,0,0,0,0,9016.09319,3.00E-08,-0.342495833,-0.198287962,0.300432251,20.4293931,-0.198287962,0,-11.3612582,-11.3608686,-0.198288171,-0.342495833,0,10,7.73494666,0,0,-113.610634,-1.49E-05,-3.40E-06,-3.40E-06,-1.49E-05,-1.49E-05,-3.03E-05,1,1,1,1.05310879,-2.88E-05,0.001096037,3.52E-07,1.53E-05,-1.36E-05,-4.76E-06,-1.36E-05,1.19196978,0.039732326,0.120400988,2.04681679,0,0,0,-13.8145436,-0.138145436,0.988958296,0.01,0.148194089,-0.133849621,-3.24E-08,0,0,0,0,0,0,0,0,0,0,0,0,0,0,0,0,0,0,0,0,0,0,0,0,0,0,0,0,0,0,0,0,0,0,0,0,0,0,0,0,0,0,0,0,0,0,0,0,0,0,0,0,0,0,0,0,0,0,0,0,0,0,0,0,0,91.1131,94.9218,4508.04,91.1131,94.9218,4508.04,2861.2,4208.82,1195.31,286.2,1195.31,286.2,309.026,309.026,0,0,11.0231,11.0231,0,2.046816792,0.120400988,7.616932246,7.616932246,0.596278405,0,0,9016.072858,3.00E-08,0.300432215,0.300432251
1425,-1.53E-05,-0.017654689,1.53E-05,0.039738519,-0.00019476,-0.00019476,-11.23187529,-0.000272163,1.19215557,-7.12E-05,0.210007954,-0.000825943,1.76E-05,-0.211031053,-1.19E-05,-0.002354213,0.211088918,-0.004153958,128.2972033,14042226.17,587.1834931,1045.959238,572.386083,2.401114572,85.55688082,-0.09329935,-0.000176613,-0.135312339,1.447654049,0.24257761,1.656372053,5.67796799,7.20E-05,-33.84927244,580.7000421,-0.002165695,87.01675538,310.3976817,923.6121777,-380.2953475,378.0876677,-217.6619799,-380.2953475,-539.6643426,-208.5487241,-14.87952692,7970.879539,0.084179649,52822.99596,6.626997147,-54.84548824,0.113578459,-53420.97729,9015.823884,0,0,0,0,0,0,0,0,0,0,0,8960.978396,0.113578459,-53420.97729,0.000744217,3.05E-07,0.000410489,403.5277061,2116.22,515.5037815,0,0,8.743213601,0.764932073,6.59E-49,0,0,0,64626.66214,-9.30E-15,740.5457021,-9.30E-15,238475.1362,-2.03E-14,740.5457021,-2.03E-14,295350.6374,1578.20164,50777.13691,405.1854564,7.16E-17,-9.893135839,34982.39352,34945.27403,-0.053816836,9.974305586,200.8828572,-0.180584317,-0.085408027,-0.016214891,0.979710085,0.082308012,0.932255876,-0.170793602,-0.308145936,0.09819987,0.939867681,-0.122148334,-0.303455618,8.522249594,-0.000211323,43.63786743,43.82978242,-1.371710458,15096891.02,1209905.581,14441769.46,15140955.8,-362556.8326,14441769.46,5.953755638,34945.27403,37.11928149,7970.88,0.0841796,52823,-0.102835,-14489.5,-0.0647055,10.2917,0.300432,1808.15,1808.15,0.0052045,1,0.760585,0,0.760585,1,0.885384,0.0532255,0.0220766,0,-0.00258844,0,-1.22527,0.958097,0,0,0,0.135436,0.00520587,0.00419851,-0.000265946,0.162112,0.144575,2.94E-06,-1.13E-08,-4.01E-07,4.01E-07,-1.40E-06,1.53E-06,3.94E-07,1.77E-08,-5.85E-08,-3.54E-07,-2.82E-08,-2.91E-08,0.0149902,0,-0.055,-0.000616973,-0.0132611,-0.0188522,0.148947,0.280799,0,0,0,-0.0012365,-0.0267718,-4.08E-07,8.31E-10,6.99E-09,1.06E-07,-8.83E-08,3.97E-07,-1.83E-08,0,0,0,0,0,9015.84449,3.00E-08,-0.33860127,-0.196033205,0.300431629,20.4293508,-0.196033205,0,-11.2320701,-11.2316805,-0.196028081,-0.33860127,0,10,7.73582343,0,0,-112.318753,-1.49E-05,-3.40E-06,-3.40E-06,-1.49E-05,-1.49E-05,-3.02E-05,1,1,1,1.05053094,-2.88E-05,0.001044619,3.55E-07,1.53E-05,-1.36E-05,-4.75E-06,-1.36E-05,1.19215557,0.039738519,0.120419755,2.04713583,0,0,0,-13.8145436,-0.138145436,0.98895839,0.01,0.148193463,-0.133855818,-3.24E-08,0,0,0,0,0,0,0,0,0,0,0,0,0,0,0,0,0,0,0,0,0,0,0,0,0,0,0,0,0,0,0,0,0,0,0,0,0,0,0,0,0,0,0,0,0,0,0,0,0,0,0,0,0,0,0,0,0,0,0,0,0,0,0,0,0,91.1131,94.9218,4507.91,91.1131,94.9218,4507.91,2861.2,4208.82,1195.31,286.2,1195.31,286.2,309.026,309.026,0,0,11.0231,11.0231,0,2.047135828,0.120419755,7.616932246,7.616932246,0.596270944,0,0,9015.823884,3.00E-08,0.300431589,0.300431629
1425.1,-1.53E-05,-0.021591516,1.53E-05,0.039692904,-0.000194715,-0.000194715,-11.36310839,-0.000271833,1.19078712,-7.19E-05,0.208044496,-0.000825472,1.70E-05,0.019808217,-1.18E-05,-0.002353702,0.209125457,-0.004154314,128.2856897,14041384.5,587.1716549,1045.963312,572.3765231,2.401097007,85.54128059,-0.102415836,-0.000174373,-0.146774189,1.432677941,0.245440624,1.656966883,5.677390607,7.19E-05,-33.83908723,580.6899546,-0.002163462,87.00418909,310.541681,923.6365762,-380.1297008,378.2382978,-217.658358,-380.1297008,-539.6484806,-208.5409695,-15.10435827,7968.165759,0.084103581,52807.14986,6.627265478,-55.50431612,0.113462671,-53404.90297,9015.571485,0,0,0,0,0,0,0,0,0,0,0,8960.067169,0.113462671,-53404.90297,0.00074418,3.05E-07,0.000410506,403.5230173,2116.22,515.4723149,0,0,8.743213601,0.764932073,6.67E-49,0,0,0,64626.66214,-9.30E-15,740.5457021,-9.30E-15,238475.1362,-2.03E-14,740.5457021,-2.03E-14,295350.6374,1578.20164,50777.13691,405.1854564,7.16E-17,-9.893135839,34983.71196,34947.04195,-0.053842652,9.995214099,200.882699,-0.18058019,-0.085586769,-0.016247928,0.9796947,0.082338774,0.932311778,-0.170778004,-0.307977188,0.098222932,0.939923142,-0.122126427,-0.303285142,8.521182796,-0.000211109,43.63771968,43.82963462,-1.371789352,15096922.06,1209997.943,14441731.44,15140993.61,-362578.5987,14441731.44,5.954173446,34947.04195,36.66979549,7968.17,0.0841036,52807.1,-0.103201,-13526.3,-0.064749,10.2917,0.300433,1808.15,1808.15,0.0052045,1,0.760591,0,0.760591,1,0.885291,0.0531644,0.0220514,0,-0.00261872,0,-1.23954,0.957889,0,0,0,0.135413,0.00519989,0.00419359,-0.000268998,0.164043,0.144538,2.94E-06,-1.15E-08,-4.01E-07,4.01E-07,-1.40E-06,1.53E-06,3.93E-07,1.78E-08,-5.85E-08,-3.54E-07,-2.82E-08,-2.93E-08,0.0149976,0,-0.055,-0.000611175,-0.0132606,-0.0188521,0.150682,0.284067,0,0,0,-0.00123513,-0.024994,-4.07E-07,8.40E-10,7.06E-09,1.05E-07,-8.83E-08,3.96E-07,-1.84E-08,0,0,0,0,0,9015.59238,3.00E-08,-0.342557483,-0.198323655,0.300433538,20.4294806,-0.198323655,0,-11.3633031,-11.3629137,-0.198324114,-0.342557483,0,10,7.72659692,0,0,-113.631084,-1.49E-05,-3.40E-06,-3.40E-06,-1.49E-05,-1.49E-05,-3.02E-05,1,1,1,1.05288977,-2.88E-05,0.001034853,3.59E-07,1.53E-05,-1.36E-05,-4.74E-06,-1.36E-05,1.19078712,0.039692904,0.120281527,2.04478596,0,0,0,-13.8145436,-0.138145436,0.988961149,0.01,0.14817505,-0.133826828,-3.23E-08,0,0,0,0,0,0,0,0,0,0,0,0,0,0,0,0,0,0,0,0,0,0,0,0,0,0,0,0,0,0,0,0,0,0,0,0,0,0,0,0,0,0,0,0,0,0,0,0,0,0,0,0,0,0,0,0,0,0,0,0,0,0,0,0,0,91.1131,94.9218,4507.79,91.1131,94.9218,4507.79,2861.2,4208.82,1195.31,286.2,1195.31,286.2,309.026,309.026,0,0,11.0231,11.0231,0,2.044785964,0.120281527,7.616932246,7.616932246,0.596262387,0,0,9015.571485,3.00E-08,0.300433493,0.300433538
1425.2,-1.53E-05,-0.021591516,1.53E-05,0.039649262,-0.000194668,-0.000194668,-11.36277161,-0.000271497,1.189477858,-7.26E-05,0.210099038,-0.000824992,1.68E-05,0.021374331,-1.19E-05,-0.002353225,0.211179996,-0.004154666,128.2735962,14040507.48,587.1587344,1045.967218,572.3655419,2.401079646,85.52787345,-0.117503576,-0.000172572,-0.119912709,1.418800071,0.248492543,1.658978322,5.676929181,7.18E-05,-33.83069431,580.6784409,-0.002161035,86.99383703,310.6842392,923.66127,-379.9639244,378.3875254,-217.6542961,-379.9639244,-539.6315486,-208.5328083,-15.32825656,7965.903098,0.084014165,52794.09612,6.627509207,-55.97668062,0.113332639,-53391.65725,9015.315627,0,0,0,0,0,0,0,0,0,0,0,8959.338946,0.113332639,-53391.65725,0.000744143,3.05E-07,0.000410522,403.5182488,2116.22,515.4403144,0,0,8.743213601,0.764932073,6.73E-49,0,0,0,64626.66214,-9.30E-15,740.5457021,-9.30E-15,238475.1362,-2.03E-14,740.5457021,-2.03E-14,295350.6374,1578.20164,50777.13691,405.1854564,7.16E-17,-9.893135839,34985.05283,34948.81934,-0.053868594,10.01626965,200.8825407,-0.180576037,-0.085766765,-0.016281197,0.979679172,0.082369753,0.932368044,-0.170762295,-0.307807234,0.098246148,0.939978962,-0.12210439,-0.30311345,8.520350256,-0.000210877,43.63757194,43.82948681,-1.371868243,15096953.13,1210090.308,14441693.43,15141031.44,-362600.3643,14441693.43,5.954591253,34948.81934,36.23328511,7965.9,0.0840142,52794.1,-0.103607,-13517.6,-0.0646883,10.2917,0.300435,1808.14,1808.14,0.0052045,1,0.760597,0,0.760597,1,0.88522,0.053106,0.0220272,0,-0.00261861,0,-1.23947,0.957734,0,0,0,0.135395,0.00519417,0.0041889,-0.00026894,0.164066,0.144509,2.94E-06,-1.16E-08,-4.00E-07,4.00E-07,-1.40E-06,1.52E-06,3.93E-07,1.80E-08,-5.84E-08,-3.54E-07,-2.82E-08,-2.94E-08,0.0150033,0,-0.055,-0.000617187,-0.0132602,-0.018852,0.150672,0.284048,0,0,0,-0.00123381,-0.0249802,-4.07E-07,8.39E-10,7.13E-09,1.05E-07,-8.83E-08,3.96E-07,-1.83E-08,0,0,0,0,0,9015.3368,3.00E-08,-0.34254733,-0.198317777,0.300435304,20.4296007,-0.198317777,0,-11.3629663,-11.3625769,-0.19831828,-0.34254733,0,10,7.71773778,0,0,-113.627716,-1.49E-05,-3.40E-06,-3.40E-06,-1.49E-05,-1.49E-05,-3.02E-05,1,1,1,1.0526453,-2.88E-05,0.001045072,3.62E-07,1.53E-05,-1.35E-05,-4.74E-06,-1.35E-05,1.18947786,0.039649262,0.120149279,2.04253774,0,0,0,-13.8145436,-0.138145436,0.988963302,0.01,0.148160679,-0.133804861,-3.23E-08,0,0,0,0,0,0,0,0,0,0,0,0,0,0,0,0,0,0,0,0,0,0,0,0,0,0,0,0,0,0,0,0,0,0,0,0,0,0,0,0,0,0,0,0,0,0,0,0,0,0,0,0,0,0,0,0,0,0,0,0,0,0,0,0,0,91.1131,94.9218,4507.66,91.1131,94.9218,4507.66,2861.2,4208.82,1195.31,286.2,1195.31,286.2,309.026,309.026,0,0,11.0231,11.0231,0,2.042537736,0.120149279,7.616932246,7.616932246,0.596252789,0,0,9015.315627,3.00E-08,0.300435255,0.300435304
1425.3,-1.53E-05,-0.021591516,1.53E-05,0.039617356,-0.000194617,-0.000194617,-11.36241494,-0.000271151,1.188520691,-7.34E-05,0.212263338,-0.000824498,1.66E-05,0.022010261,-1.19E-05,-0.00235278,0.213344293,-0.004155011,128.2608797,14039602.91,587.1447034,1045.970954,572.3530419,2.401062442,85.51712089,-0.13278472,-0.000171259,-0.09348792,1.405804222,0.251719489,1.662213217,5.676562946,7.17E-05,-33.82380344,580.6654019,-0.002158463,86.98617002,310.8254627,923.6862792,-379.7978742,378.5354584,-217.6497853,-379.7978742,-539.6135169,-208.5242288,-15.55139918,7964.098773,0.083916256,52783.37044,6.627663963,-56.29511608,0.113193896,-53380.78207,9015.056069,0,0,0,0,0,0,0,0,0,0,0,8958.760953,0.113193896,-53380.78207,0.000744104,3.05E-07,0.000410539,403.5129898,2116.22,515.4071311,0,0,8.743213601,0.764932073,6.79E-49,0,0,0,64626.66214,-9.30E-15,740.5457021,-9.30E-15,238475.1362,-2.03E-14,740.5457021,-2.03E-14,295350.6374,1578.20164,50777.13691,405.1854564,7.16E-17,-9.893135839,34986.41606,34950.62533,-0.05389468,10.03753663,200.8823822,-0.180571848,-0.085948566,-0.016314799,0.979663452,0.082401045,0.932424846,-0.170746428,-0.307635549,0.098269585,0.940035308,-0.122082167,-0.302940014,8.519798857,-0.000210631,43.63742419,43.82933902,-1.37194713,15096984.2,1210182.676,14441655.44,15141069.29,-362622.1295,14441655.44,5.955009061,34950.62533,35.79052733,7964.1,0.0839163,52783.4,-0.104011,-13513.1,-0.0645498,10.2917,0.300436,1808.14,1808.14,0.0052045,1,0.760604,0,0.760604,1,0.885172,0.0530632,0.0220095,0,-0.0026185,0,-1.2394,0.957626,0,0,0,0.135383,0.00518999,0.00418548,-0.000268899,0.16408,0.144489,2.93E-06,-1.17E-08,-4.00E-07,4.00E-07,-1.40E-06,1.52E-06,3.92E-07,1.82E-08,-5.84E-08,-3.54E-07,-2.81E-08,-2.95E-08,0.0150071,0,-0.055,-0.00062353,-0.0132599,-0.018852,0.150664,0.284032,0,0,0,-0.00123284,-0.0249742,-4.06E-07,8.38E-10,7.21E-09,1.05E-07,-8.83E-08,3.95E-07,-1.83E-08,0,0,0,0,0,9015.07752,3.00E-08,-0.342536578,-0.198311552,0.300436453,20.4296788,-0.198311552,0,-11.3626096,-11.3622203,-0.198312074,-0.342536578,0,10,7.71114509,0,0,-113.624149,-1.49E-05,-3.40E-06,-3.40E-06,-1.49E-05,-1.49E-05,-3.01E-05,1,1,1,1.05243264,-2.88E-05,0.001055838,3.66E-07,1.53E-05,-1.35E-05,-4.73E-06,-1.35E-05,1.18852069,0.039617356,0.120052595,2.04089412,0,0,0,-13.8145436,-0.138145436,0.988964728,0.01,0.148151162,-0.133789426,-3.23E-08,0,0,0,0,0,0,0,0,0,0,0,0,0,0,0,0,0,0,0,0,0,0,0,0,0,0,0,0,0,0,0,0,0,0,0,0,0,0,0,0,0,0,0,0,0,0,0,0,0,0,0,0,0,0,0,0,0,0,0,0,0,0,0,0,0,91.1131,94.9218,4507.53,91.1131,94.9218,4507.53,2861.2,4208.82,1195.31,286.2,1195.31,286.2,309.026,309.026,0,0,11.0231,11.0231,0,2.040894115,0.120052595,7.616932246,7.616932246,0.596242426,0,0,9015.056069,3.00E-08,0.3004364,0.300436453
1425.4,-1.53E-05,-0.021591516,1.53E-05,0.039601736,-0.000194564,-0.000194564,-11.36205447,-0.000270794,1.188052087,-7.42E-05,0.214447015,-0.000823988,1.64E-05,0.02163307,-1.19E-05,-0.002352366,0.215527968,-0.004155349,128.2475909,14038653.47,587.1295351,1045.974515,572.3390101,2.401045344,85.50893041,-0.148122647,-0.000170436,-0.068710297,1.393872449,0.255155625,1.666916674,5.676297143,7.16E-05,-33.81872122,580.6508244,-0.002155794,86.98109652,310.9654426,923.711622,-379.6314238,378.6821892,-217.6448169,-379.6314238,-539.5943573,-208.5152203,-15.77394015,7962.808708,0.083813985,52775.45371,6.627743507,-56.45194977,0.113051443,-53372.76131,9014.793412,0,0,0,0,0,0,0,0,0,0,0,8958.341462,0.113051443,-53372.76131,0.000744066,3.05E-07,0.000410556,403.5080554,2116.22,515.3740572,0,0,8.743213601,0.764932073,6.84E-49,0,0,0,64626.66214,-9.30E-15,740.5457021,-9.30E-15,238475.1362,-2.03E-14,740.5457021,-2.03E-14,295350.6374,1578.20164,50777.13691,405.1854564,7.16E-17,-9.893135839,34987.80158,34952.51433,-0.053920914,10.05902164,200.8822236,-0.180567622,-0.086132228,-0.016348744,0.979647534,0.08243266,0.932482202,-0.170730399,-0.30746208,0.098293251,0.940092199,-0.122059752,-0.302764778,8.519519972,-0.000210376,43.63727646,43.82919122,-1.372026014,15097015.29,1210275.046,14441617.47,15141107.15,-362643.8942,14441617.47,5.955426868,34952.51433,35.28705497,7962.81,0.083814,52775.5,-0.104384,-13513.3,-0.0643786,10.2917,0.300437,1808.13,1808.13,0.0052045,1,0.760611,0,0.760611,1,0.885148,0.0530423,0.0220009,0,-0.00261841,0,-1.23935,0.957573,0,0,0,0.135377,0.00518795,0.0041838,-0.000268874,0.164084,0.144479,2.93E-06,-1.18E-08,-4.00E-07,4.00E-07,-1.40E-06,1.52E-06,3.92E-07,1.84E-08,-5.83E-08,-3.54E-07,-2.81E-08,-2.96E-08,0.0150091,0,-0.055,-0.000629936,-0.0132598,-0.018852,0.150658,0.28402,0,0,0,-0.00123236,-0.0249768,-4.06E-07,8.37E-10,7.29E-09,1.05E-07,-8.82E-08,3.95E-07,-1.83E-08,0,0,0,0,0,9014.81514,3.00E-08,-0.342525711,-0.19830526,0.300436733,20.4296978,-0.19830526,0,-11.362249,-11.3618599,-0.198305781,-0.342525711,0,10,7.70770546,0,0,-113.620545,-1.49E-05,-3.40E-06,-3.40E-06,-1.49E-05,-1.49E-05,-3.01E-05,1,1,1,1.05227144,-2.88E-05,0.0010667,3.70E-07,1.53E-05,-1.35E-05,-4.73E-06,-1.35E-05,1.18805209,0.039601736,0.120005261,2.04008944,0,0,0,-13.8145436,-0.138145436,0.988965449,0.01,0.148146348,-0.133781641,-3.22E-08,0,0,0,0,0,0,0,0,0,0,0,0,0,0,0,0,0,0,0,0,0,0,0,0,0,0,0,0,0,0,0,0,0,0,0,0,0,0,0,0,0,0,0,0,0,0,0,0,0,0,0,0,0,0,0,0,0,0,0,0,0,0,0,0,0,91.1131,94.9218,4507.4,91.1131,94.9218,4507.4,2861.2,4208.82,1195.31,286.2,1195.31,286.2,309.026,309.026,0,0,11.0231,11.0231,0,2.040089442,0.120005261,7.616932246,7.616932246,0.596230669,0,0,9014.793412,3.00E-08,0.300436676,0.300436733
1425.5,-1.53E-05,-0.021591516,1.53E-05,0.039598597,-0.000194507,-0.000194507,-11.36170429,-0.000270426,1.187957918,-7.51E-05,0.216560937,-0.000823461,1.63E-05,0.020460924,-1.19E-05,-0.002351979,0.217641886,-0.004155679,128.2336877,14037666.81,587.1132022,1045.977898,572.3234464,2.401028306,85.5031187,-0.163394003,-0.000170084,-0.046143342,1.382801279,0.25876812,1.672834262,5.676120438,7.15E-05,-33.8151207,580.6347082,-0.002153077,86.97843289,311.1042709,923.737317,-379.4644441,378.8278114,-217.6393818,-379.4644441,-539.574041,-208.5057714,-15.99603592,7961.95745,0.083711035,52769.8355,6.627746484,-56.46482667,0.112909339,-53367.07896,9014.527414,0,0,0,0,0,0,0,0,0,0,0,8958.062587,0.112909339,-53367.07896,0.000744027,3.05E-07,0.000410574,403.5030416,2116.22,515.3404539,0,0,8.743213601,0.764932073,6.88E-49,0,0,0,64626.66214,-9.30E-15,740.5457021,-9.30E-15,238475.1362,-2.03E-14,740.5457021,-2.03E-14,295350.6374,1578.20164,50777.13691,405.1854564,7.16E-17,-9.893135839,34989.20934,34954.37414,-0.053947302,10.08072243,200.8820648,-0.180563359,-0.086317731,-0.01638303,0.97963142,0.082464595,0.932540104,-0.170714209,-0.307286844,0.098317143,0.940149627,-0.122037148,-0.302587761,8.519495897,-0.000210117,43.63712873,43.82904344,-1.372104894,15097046.39,1210367.418,14441579.52,15141145.03,-362665.6585,14441579.52,5.955844676,34954.37414,34.83500557,7961.96,0.083711,52769.8,-0.1047,-13517,-0.0642147,10.2917,0.300436,1808.13,1808.13,0.0052045,1,0.760619,0,0.760619,1,0.885146,0.0530381,0.0219991,0,-0.00261833,0,-1.23931,0.957565,0,0,0,0.135376,0.00518754,0.00418346,-0.000268864,0.16408,0.144478,2.93E-06,-1.20E-08,-4.00E-07,4.00E-07,-1.40E-06,1.52E-06,3.91E-07,1.86E-08,-5.83E-08,-3.53E-07,-2.81E-08,-2.97E-08,0.0150092,0,-0.055,-0.000636145,-0.0132597,-0.0188519,0.150653,0.284011,0,0,0,-0.00123227,-0.0249861,-4.05E-07,8.36E-10,7.37E-09,1.05E-07,-8.82E-08,3.94E-07,-1.82E-08,0,0,0,0,0,9014.54942,3.00E-08,-0.342515154,-0.198299149,0.300436344,20.4296714,-0.198299149,0,-11.3618988,-11.3615098,-0.198299645,-0.342515154,0,10,7.70667675,0,0,-113.617043,-1.49E-05,-3.39E-06,-3.39E-06,-1.49E-05,-1.49E-05,-3.01E-05,1,1,1,1.05214622,-2.87E-05,0.001077215,3.75E-07,1.53E-05,-1.35E-05,-4.72E-06,-1.35E-05,1.18795792,0.039598597,0.119995749,2.03992774,0,0,0,-13.8145436,-0.138145436,0.988965511,0.01,0.148145933,-0.133780283,-3.22E-08,0,0,0,0,0,0,0,0,0,0,0,0,0,0,0,0,0,0,0,0,0,0,0,0,0,0,0,0,0,0,0,0,0,0,0,0,0,0,0,0,0,0,0,0,0,0,0,0,0,0,0,0,0,0,0,0,0,0,0,0,0,0,0,0,0,91.1131,94.9218,4507.26,91.1131,94.9218,4507.26,2861.2,4208.82,1195.31,286.2,1195.31,286.2,309.026,309.026,0,0,11.0231,11.0231,0,2.039927737,0.119995749,7.616932246,7.616932246,0.596217787,0,0,9014.527414,3.00E-08,0.300436283,0.300436344
